1,58,036,37,194,58,189,32*77
$GPGSV,4,2,15,22,52,121,29,50,47,195,,14,43,313,20,08,38,078,23*72
$GPGSV,4,3,15,03,36,158,30,28,28,317,35,30,28,256,28,17,21,292,32*7F
$GPGSV,4,4,15,07,19,215,19,193,17,161,33,27,08,092,*71
$GPRMC,050004.000,A,3516.7349,N,13615.5961,E,0.70,52.13,160521,,,A*5F
$GPVTG,52.13,T,,M,0.70,N,1.30,K,A*0D
$GPZDA,050004.000,16,05,2021,,*54
$PMTKCHN,193322,01272,21362,22272,30272,07192,28332,03292,17312,194312,195252,50001,08222,27001,14202,00000,00000,00000,00000,00000,00000,00000,00000,00000,00000,00000,00000,00000,00000,00000,00000,00000*7C
$GPGGA,050005.000,3516.7355,N,13615.5967,E,1,10,0.97,115.4,M,35.3,M,,*6F
$GPGLL,3516.7355,N,13615.5967,E,050005.000,A,A*51
$GPGSA,A,3,01,21,22,07,28,03,17,195,08,14,,,1.31,0.97,0.87*3A
$GPGSV,4,1,15,195,84,013,25,01,79,345,27,21,58,036,36,194,58,189,31*79
$GPGSV,4,2,15,22,52,121,27,50,47,195,,14,43,313,20,08,38,078,22*7D
$GPGSV,4,3,15,03,36,158,29,28,28,317,33,30,28,256,27,17,21,292,31*7D
$GPGSV,4,4,15,07,19,215,19,193,17,161,32,27,08,092,*70
$GPRMC,050005.000,A,3516.7355,N,13615.5967,E,0.53,52.13,160521,,,A*54
$GPVTG,52.13,T,,M,0.53,N,0.99,K,A*0E
$GPZDA,050005.000,16,05,2021,,*55
$PMTKCHN,193312,01262,21352,22262,30262,07182,28332,03282,17302,194302,195242,50001,08222,27001,14192,00000,00000,00000,00000,00000,00000,00000,00000,00000,00000,00000,00000,00000,00000,00000,00000,00000*76
$GPGGA,050006.000,3516.7360,N,13615.5968,E,1,10,0.97,121.8,M,35.3,M,,*6E
$GPGLL,3516.7360,N,13615.5968,E,050006.000,A,A*5B
$GPGSA,A,3,01,21,22,07,28,03,17,195,08,14,,,1.31,0.97,0.87*3A
$GPGSV,4,1,15,195,84,013,24,01,79,345,26,21,58,036,35,194,58,189,30*7B
$GPGSV,4,2,15,22,52,121,26,50,47,195,,14,43,313,19,08,38,078,22*76
$GPGSV,4,3,15,03,36,158,28,28,28,317,33,30,28,256,26,17,21,292,30*7C
$GPGSV,4,4,15,07,19,215,18,193,17,161,31,27,08,092,*72
$GPRMC,050006.000,A,3516.7360,N,13615.5968,E,0.35,52.13,160521,,,A*5E
$GPVTG,52.13,T,,M,0.35,N,0.64,K,A*0C
$GPZDA,050006.000,16,05,2021,,*56
$PMTKCHN,193302,01262,21352,22252,30262,07182,28332,03282,17292,194302,195232,27001,08212,50262,14192,00000,00000,00000,00000,00000,00000,00000,00000,00000,00000,00000,00000,00000,00000,00000,00000,00000*7F
$GPGGA,050007.000,3516.7368,N,13615.5953,E,1,10,0.97,123.3,M,35.3,M,,*66
$GPGLL,3516.7368,N,13615.5953,E,050007.000,A,A*5A
$GPGSA,A,3,01,21,22,07,28,03,17,195,08,14,,,1.31,0.97,0.87*3A
$GPGSV,4,1,15,195,84,013,23,01,79,345,26,21,58,036,35,194,58,189,30*7C
$GPGSV,4,2,15,22,52,121,25,50,47,195,,14,43,313,19,08,38,078,21*76
$GPGSV,4,3,15,03,36,158,28,28,28,317,33,30,28,256,26,17,21,292,29*74
$GPGSV,4,4,15,07,19,215,18,193,17,161,30,27,08,092,*73
$GPRMC,050007.000,A,3516.7368,N,13615.5953,E,0.48,52.13,160521,,,A*55
$GPVTG,52.13,T,,M,0.48,N,0.88,K,A*04
$GPZDA,050007.000,16,05,2021,,*57
$PMTKCHN,193292,01262,21342,22252,30252,07172,28322,03282,17282,194292,195222,27001,08212,50252,14202,00000,00000,00000,00000,00000,00000,00000,00000,00000,00000,00000,00000,00000,00000,00000,00000,00000*7A
$GPGGA,050008.000,3516.7348,N,13615.5934,E,1,10,0.97,124.9,M,35.3,M,,*67
$GPGLL,3516.7348,N,13615.5934,E,050008.000,A,A*56
$GPGSA,A,3,01,21,22,07,28,03,17,195,08,14,,,1.31,0.97,0.87*3A
$GPGSV,4,1,15,195,84,013,22,01,79,345,26,21,58,036,34,194,58,189,29*74
$GPGSV,4,2,15,22,52,121,25,50,47,195,,14,43,313,20,08,38,078,21*7C
$GPGSV,4,3,15,03,36,158,28,28,28,317,32,30,28,256,25,17,21,292,28*77
$GPGSV,4,4,15,07,19,215,17,193,17,161,29,27,08,092,*74
$GPRMC,050008.000,A,3516.7348,N,13615.5934,E,0.08,52.13,160521,,,A*5D
$GPVTG,52.13,T,,M,0.08,N,0.15,K,A*04
$GPZDA,050008.000,16,05,2021,,*58
$PMTKCHN,193292,01262,21332,22252,30242,07172,28322,03272,17272,194292,195212,44001,08212,50242,14202,27001,00000,00000,00000,00000,00000,00000,00000,00000,00000,00000,00000,00000,00000,00000,00000,00000*7F
$GPGGA,050009.000,3516.7331,N,13615.5924,E,1,10,0.97,120.0,M,35.3,M,,*64
$GPGLL,3516.7331,N,13615.5924,E,050009.000,A,A*58
$GPGSA,A,3,01,21,22,07,28,03,17,195,08,14,,,1.31,0.97,0.87*3A
$GPGSV,4,1,15,195,84,013,21,01,79,345,26,21,58,036,33,194,58,189,29*70
$GPGSV,4,2,15,22,52,121,25,14,43,313,20,08,38,078,21,03,36,158,27*78
$GPGSV,4,3,15,28,28,317,32,30,28,256,24,17,21,292,27,07,19,215,17*76
$GPGSV,4,4,15,193,17,161,29,27,08,092,,44,06,258,*72
$GPRMC,050009.000,A,3516.7331,N,13615.5924,E,0.05,52.13,160521,,,A*5E
$GPVTG,52.13,T,,M,0.05,N,0.09,K,A*04
$GPZDA,050009.000,16,05,2021,,*59
$PMTKCHN,193292,01262,21332,22242,30242,07172,28322,03262,17262,194292,195202,44001,08212,27001,14202,00000,00000,00000,00000,00000,00000,00000,00000,00000,00000,00000,00000,00000,00000,00000,00000,00000*7E
$GPGGA,050010.000,3516.7339,N,13615.5922,E,1,10,0.97,118.1,M,35.3,M,,*68
$GPGLL,3516.7339,N,13615.5922,E,050010.000,A,A*5E
$GPGSA,A,3,01,21,22,07,28,03,17,195,08,14,,,1.31,0.97,0.87*3A
$GPGSV,4,1,15,195,84,013,20,01,79,345,26,21,58,036,33,194,58,189,29*71
$GPGSV,4,2,15,22,52,121,24,14,43,313,20,08,38,078,21,03,36,158,26*78
$GPGSV,4,3,15,28,28,317,32,30,28,256,24,17,21,292,26,07,19,215,17*77
$GPGSV,4,4,15,193,17,161,29,27,08,092,,44,06,258,*72
$GPRMC,050010.000,A,3516.7339,N,13615.5922,E,0.66,68.66,160521,,,A*56
$GPVTG,68.66,T,,M,0.66,N,1.22,K,A*02
$GPZDA,050010.000,16,05,2021,,*51
$PMTKCHN,193292,01262,21332,22232,30242,07172,28322,03262,17262,194292,195202,44001,08202,27001,14202,00000,00000,00000,00000,00000,00000,00000,00000,00000,00000,00000,00000,00000,00000,00000,00000,00000*78
$GPGGA,050011.000,3516.7337,N,13615.5931,E,1,10,0.97,121.8,M,35.3,M,,*66
$GPGLL,3516.7337,N,13615.5931,E,050011.000,A,A*53
$GPGSA,A,3,01,21,22,07,28,03,17,195,08,14,,,1.31,0.97,0.87*3A
$GPGSV,4,1,15,195,84,013,20,01,79,345,26,21,58,036,33,194,58,189,29*71
$GPGSV,4,2,15,22,52,121,23,14,43,313,20,08,38,078,20,03,36,158,26*7E
$GPGSV,4,3,15,28,28,317,32,30,28,256,24,17,21,292,26,07,19,215,17*77
$GPGSV,4,4,15,193,17,161,29,27,08,092,,44,06,258,*72
$GPRMC,050011.000,A,3516.7337,N,13615.5931,E,0.38,68.66,160521,,,A*50
$GPVTG,68.66,T,,M,0.38,N,0.71,K,A*0E
$GPZDA,050011.000,16,05,2021,,*50
$PMTKCHN,193292,01262,21332,22232,30242,07172,28322,03262,17252,194292,195202,44001,08202,27001,14202,00000,00000,00000,00000,00000,00000,00000,00000,00000,00000,00000,00000,00000,00000,00000,00000,00000*7B
$GPGGA,050012.000,3516.7335,N,13615.5936,E,1,10,0.97,121.7,M,35.3,M,,*6F
$GPGLL,3516.7335,N,13615.5936,E,050012.000,A,A*55
$GPGSA,A,3,01,21,22,07,28,03,17,195,08,14,,,1.31,0.97,0.87*3A
$GPGSV,4,1,15,195,84,013,20,01,79,345,26,21,58,036,33,194,58,189,29*71
$GPGSV,4,2,15,22,52,121,23,14,43,313,20,08,38,078,20,03,36,158,26*7E
$GPGSV,4,3,15,28,28,317,32,30,28,256,24,17,21,292,25,07,19,215,17*74
$GPGSV,4,4,15,193,17,161,29,27,08,092,,44,06,258,*72
$GPRMC,050012.000,A,3516.7335,N,13615.5936,E,0.75,250.98,160521,,,A*67
$GPVTG,250.98,T,,M,0.75,N,1.39,K,A*32
$GPZDA,050012.000,16,05,2021,,*53
$PMTKCHN,193282,01262,21322,22232,30232,07172,28312,03262,17252,194292,195202,44001,08212,27001,14202,00000,00000,00000,00000,00000,00000,00000,00000,00000,00000,00000,00000,00000,00000,00000,00000,00000*7E
$GPGGA,050013.000,3516.7352,N,13615.5937,E,1,10,0.97,122.3,M,35.3,M,,*69
$GPGLL,3516.7352,N,13615.5937,E,050013.000,A,A*54
$GPGSA,A,3,01,21,22,07,28,03,17,195,08,14,,,1.31,0.97,0.87*3A
$GPGSV,4,1,15,195,84,013,20,01,79,345,26,21,58,036,32,194,58,189,29*70
$GPGSV,4,2,15,22,52,121,23,14,43,313,20,08,38,078,21,03,36,158,26*7F
$GPGSV,4,3,15,28,28,317,31,30,28,256,23,17,21,292,25,07,19,215,17*70
$GPGSV,4,4,15,193,17,161,28,27,08,092,,44,06,258,*73
$GPRMC,050013.000,A,3516.7352,N,13615.5937,E,0.96,44.56,160521,,,A*5E
$GPVTG,44.56,T,,M,0.96,N,1.77,K,A*00
$GPZDA,050013.000,16,05,2021,,*52
$PMTKCHN,193282,01272,21322,22222,30232,07172,28312,03262,17252,194292,195202,44001,08212,27001,14202,00000,00000,00000,00000,00000,00000,00000,00000,00000,00000,00000,00000,00000,00000,00000,00000,00000*7E
$GPGGA,050014.000,3516.7362,N,13615.5950,E,1,10,0.97,119.3,M,35.3,M,,*64
$GPGLL,3516.7362,N,13615.5950,E,050014.000,A,A*51
$GPGSA,A,3,01,21,22,07,28,03,17,195,08,14,,,1.31,0.97,0.87*3A
$GPGSV,4,1,15,195,84,013,20,01,79,345,27,21,58,036,32,194,58,189,29*71
$GPGSV,4,2,15,22,52,121,22,14,43,313,20,08,38,078,21,03,36,158,26*7E
$GPGSV,4,3,15,28,28,317,31,30,28,256,23,17,21,292,25,07,19,215,17*70
$GPGSV,4,4,15,193,17,161,28,27,08,092,,44,06,258,*73
$GPRMC,050014.000,A,3516.7362,N,13615.5950,E,0.52,44.56,160521,,,A*53
$GPVTG,44.56,T,,M,0.52,N,0.95,K,A*05
$GPZDA,050014.000,16,05,2021,,*55
$PMTKCHN,193282,01272,21322,22212,30222,07152,28312,03252,17252,194292,195202,44001,08212,27001,14202,00000,00000,00000,00000,00000,00000,00000,00000,00000,00000,00000,00000,00000,00000,00000,00000,00000*7D
$GPGGA,050015.000,3516.7410,N,13615.5977,E,1,10,1.09,123.8,M,35.3,M,,*66
$GPGLL,3516.7410,N,13615.5977,E,050015.000,A,A*57
$GPGSA,A,3,01,21,22,07,28,03,17,195,08,14,,,2.09,1.09,1.79*34
$GPGSV,4,1,15,195,84,013,20,01,79,345,27,21,58,036,32,194,58,189,29*71
$GPGSV,4,2,15,22,52,121,21,14,43,313,20,08,38,078,21,03,36,158,25*7E
$GPGSV,4,3,15,28,28,317,31,30,28,256,22,17,21,292,25,07,19,215,15*73
$GPGSV,4,4,15,193,17,161,28,27,08,092,,44,06,258,*73
$GPRMC,050015.000,A,3516.7410,N,13615.5977,E,0.28,44.56,160521,,,A*58
$GPVTG,44.56,T,,M,0.28,N,0.53,K,A*02
$GPZDA,050015.000,16,05,2021,,*54
$PMTKCHN,193282,01272,21322,22212,30222,07162,28312,03252,17252,194292,195202,44001,08212,27001,14202,00000,00000,00000,00000,00000,00000,00000,00000,00000,00000,00000,00000,00000,00000,00000,00000,00000*7E
$GPGGA,050016.000,3516.7402,N,13615.5973,E,1,10,0.97,119.3,M,35.3,M,,*66
$GPGLL,3516.7402,N,13615.5973,E,050016.000,A,A*53
$GPGSA,A,3,01,21,22,07,28,03,17,195,08,14,,,1.31,0.97,0.87*3A
$GPGSV,4,1,15,195,84,013,20,01,79,345,27,21,58,036,32,194,58,189,29*71
$GPGSV,4,2,15,22,52,121,21,14,43,313,20,08,38,078,21,03,36,158,25*7E
$GPGSV,4,3,15,28,28,317,31,30,28,256,22,17,21,292,25,07,19,215,16*70
$GPGSV,4,4,15,193,17,161,28,27,08,092,,44,06,258,*73
$GPRMC,050016.000,A,3516.7402,N,13615.5973,E,0.95,276.58,160521,,,A*67
$GPVTG,276.58,T,,M,0.95,N,1.76,K,A*3F
$GPZDA,050016.000,16,05,2021,,*57
$PMTKCHN,193292,01272,21332,22212,30222,07152,28322,03262,17262,194292,195202,44001,08202,27001,14202,00000,00000,00000,00000,00000,00000,00000,00000,00000,00000,00000,00000,00000,00000,00000,00000,00000*7F
$GPGGA,050017.000,3516.7416,N,13615.5985,E,1,10,0.97,118.0,M,35.3,M,,*69
$GPGLL,3516.7416,N,13615.5985,E,050017.000,A,A*5E
$GPGSA,A,3,01,21,22,07,28,03,17,195,08,14,,,1.31,0.97,0.87*3A
$GPGSV,4,1,15,195,84,013,20,01,79,345,27,21,58,036,33,194,58,189,29*70
$GPGSV,4,2,15,22,52,121,21,14,43,313,20,08,38,078,20,03,36,158,26*7C
$GPGSV,4,3,15,28,28,317,32,30,27,256,22,17,21,292,26,07,19,215,15*7C
$GPGSV,4,4,15,193,17,161,29,27,08,092,,44,06,258,*72
$GPRMC,050017.000,A,3516.7416,N,13615.5985,E,1.60,33.53,160521,,,A*59
$GPVTG,33.53,T,,M,1.60,N,2.97,K,A*00
$GPZDA,050017.000,16,05,2021,,*56
$PMTKCHN,193292,01272,21332,22202,30222,07132,28322,03262,17272,194292,195192,44001,08192,27001,14212,00000,00000,00000,00000,00000,00000,00000,00000,00000,00000,00000,00000,00000,00000,00000,00000,00000*78
$GPGGA,050018.000,3516.7414,N,13615.5974,E,1,10,0.97,119.6,M,35.3,M,,*6D
$GPGLL,3516.7414,N,13615.5974,E,050018.000,A,A*5D
$GPGSA,A,3,01,21,22,07,28,03,17,195,08,14,,,1.31,0.97,0.87*3A
$GPGSV,4,1,15,195,84,013,19,01,79,345,27,21,58,036,33,194,58,189,29*7A
$GPGSV,4,2,15,22,52,121,20,14,43,313,21,08,38,078,19,03,36,158,26*76
$GPGSV,4,3,15,28,28,317,32,30,27,256,22,17,21,292,27,07,19,215,13*7B
$GPGSV,4,4,15,193,17,161,29,27,08,092,,44,06,258,*72
$GPRMC,050018.000,A,3516.7414,N,13615.5974,E,0.54,33.53,160521,,,A*5C
$GPVTG,33.53,T,,M,0.54,N,0.99,K,A*0A
$GPZDA,050018.000,16,05,2021,,*59
$PMTKCHN,193292,01282,21332,22192,30212,07142,28322,03262,17272,194292,195182,40001,08172,27001,14222,00000,00000,00000,00000,00000,00000,00000,00000,00000,00000,00000,00000,00000,00000,00000,00000,00000*71
$GPGGA,050019.000,3516.7406,N,13615.5942,E,1,10,0.97,115.8,M,35.3,M,,*68
$GPGLL,3516.7406,N,13615.5942,E,050019.000,A,A*5A
$GPGSA,A,3,01,21,22,07,28,03,17,195,08,14,,,1.31,0.97,0.87*3A
$GPGSV,4,1,15,195,84,013,18,01,79,345,28,21,58,036,33,194,58,189,29*74
$GPGSV,4,2,15,22,52,121,19,14,43,313,22,08,38,078,17,03,36,158,26*71
$GPGSV,4,3,15,28,28,317,32,30,27,256,21,17,21,292,27,07,19,215,14*7F
$GPGSV,4,4,15,193,17,161,29,27,08,092,,40,05,259,*74
$GPRMC,050019.000,A,3516.7406,N,13615.5942,E,0.98,21.00,160521,,,A*5E
$GPVTG,21.00,T,,M,0.98,N,1.81,K,A*07
$GPZDA,050019.000,16,05,2021,,*58
$PMTKCHN,193292,01282,21332,22182,30202,07152,28322,03262,17272,194292,195182,40001,08152,27001,14232,00000,00000,00000,00000,00000,00000,00000,00000,00000,00000,00000,00000,00000,00000,00000,00000,00000*73
$GPGGA,050020.000,3516.7416,N,13615.5956,E,1,10,0.97,109.2,M,35.3,M,,*61
$GPGLL,3516.7416,N,13615.5956,E,050020.000,A,A*54
$GPGSA,A,3,01,21,22,07,28,03,17,195,08,14,,,1.31,0.97,0.87*3A
$GPGSV,4,1,15,195,84,013,18,01,79,345,28,21,58,036,33,194,58,189,29*74
$GPGSV,4,2,15,22,52,121,18,14,43,313,23,08,38,078,15,03,36,158,26*73
$GPGSV,4,3,15,28,28,317,32,30,27,256,20,17,21,292,27,07,19,215,15*7F
$GPGSV,4,4,15,193,17,161,29,27,08,092,,40,05,259,*74
$GPRMC,050020.000,A,3516.7416,N,13615.5956,E,0.74,227.30,160521,,,A*65
$GPVTG,227.30,T,,M,0.74,N,1.36,K,A*3E
$GPZDA,050020.000,16,05,2021,,*52
$PMTKCHN,193292,01282,21322,22172,30202,07152,28322,03252,17272,194292,195182,40001,08132,27001,14242,00000,00000,00000,00000,00000,00000,00000,00000,00000,00000,00000,00000,00000,00000,00000,00000,00000*7F
$GPGGA,050021.000,3516.7401,N,13615.5945,E,1,10,0.97,109.4,M,35.3,M,,*62
$GPGLL,3516.7401,N,13615.5945,E,050021.000,A,A*51
$GPGSA,A,3,01,21,22,07,28,03,17,195,08,14,,,1.31,0.97,0.87*3A
$GPGSV,4,1,15,195,84,013,18,01,79,345,28,21,58,036,32,194,58,189,29*75
$GPGSV,4,2,15,22,52,121,17,14,43,313,24,08,38,078,13,03,36,158,25*7E
$GPGSV,4,3,15,28,28,317,32,30,27,256,20,17,21,292,27,07,19,215,15*7F
$GPGSV,4,4,15,193,17,161,29,27,08,092,,40,05,259,*74
$GPRMC,050021.000,A,3516.7401,N,13615.5945,E,1.31,31.56,160521,,,A*55
$GPVTG,31.56,T,,M,1.31,N,2.42,K,A*0B
$GPZDA,050021.000,16,05,2021,,*53
$PMTKCHN,193292,01282,21322,22162,30202,07152,28322,03252,17272,194292,195182,40001,08122,27001,14252,00000,00000,00000,00000,00000,00000,00000,00000,00000,00000,00000,00000,00000,00000,00000,00000,00000*7E
$GPGGA,050022.000,3516.7415,N,13615.5961,E,1,10,0.97,106.8,M,35.3,M,,*61
$GPGLL,3516.7415,N,13615.5961,E,050022.000,A,A*51
$GPGSA,A,3,01,21,22,07,28,03,17,195,08,14,,,1.31,0.97,0.87*3A
$GPGSV,4,1,15,195,84,013,18,01,79,345,28,21,58,036,32,194,58,189,29*75
$GPGSV,4,2,15,22,52,121,16,14,43,313,25,08,38,078,12,03,36,158,25*7F
$GPGSV,4,3,15,28,28,317,32,30,27,256,20,17,21,292,27,07,19,215,15*7F
$GPGSV,4,4,15,193,17,161,29,27,08,092,,40,05,259,*74
$GPRMC,050022.000,A,3516.7415,N,13615.5961,E,1.46,37.58,160521,,,A*5D
$GPVTG,37.58,T,,M,1.46,N,2.71,K,A*03
$GPZDA,050022.000,16,05,2021,,*50
$PMTKCHN,193292,01282,21322,22162,30202,07152,28322,03252,17272,194292,195172,40001,08122,27001,14252,00000,00000,00000,00000,00000,00000,00000,00000,00000,00000,00000,00000,00000,00000,00000,00000,00000*71
$GPGGA,050023.000,3516.7416,N,13615.5964,E,1,10,0.97,106.3,M,35.3,M,,*6D
$GPGLL,3516.7416,N,13615.5964,E,050023.000,A,A*56
$GPGSA,A,3,01,21,22,07,28,03,17,195,08,14,,,1.31,0.97,0.87*3A
$GPGSV,4,1,15,195,84,013,17,01,79,346,28,21,58,036,32,194,58,189,29*79
$GPGSV,4,2,15,22,52,121,16,14,43,313,25,08,38,078,12,03,36,158,25*7F
$GPGSV,4,3,15,28,28,317,32,30,27,256,20,17,21,292,27,07,19,215,15*7F
$GPGSV,4,4,15,193,17,161,29,27,08,092,,40,05,259,*74
$GPRMC,050023.000,A,3516.7416,N,13615.5964,E,1.41,38.49,160521,,,A*52
$GPVTG,38.49,T,,M,1.41,N,2.60,K,A*0B
$GPZDA,050023.000,16,05,2021,,*51
$PMTKCHN,193292,01272,21322,22162,30212,07142,28322,03252,17272,194292,195172,40001,08122,27001,14252,00000,00000,00000,00000,00000,00000,00000,00000,00000,00000,00000,00000,00000,00000,00000,00000,00000*7E
$GPGGA,050024.000,3516.7416,N,13615.5966,E,1,10,0.97,105.8,M,35.3,M,,*60
$GPGLL,3516.7416,N,13615.5966,E,050024.000,A,A*53
$GPGSA,A,3,01,21,22,07,28,03,17,195,08,14,,,1.31,0.97,0.87*3A
$GPGSV,4,1,15,195,84,013,17,01,79,346,27,21,58,036,32,194,58,189,29*76
$GPGSV,4,2,15,22,52,121,16,14,43,313,25,08,38,078,12,03,36,158,25*7F
$GPGSV,4,3,15,28,28,317,32,30,27,256,21,17,21,292,27,07,19,215,14*7F
$GPGSV,4,4,15,193,17,161,29,27,08,092,,40,05,259,*74
$GPRMC,050024.000,A,3516.7416,N,13615.5966,E,1.29,41.58,160521,,,A*57
$GPVTG,41.58,T,,M,1.29,N,2.38,K,A*06
$GPZDA,050024.000,16,05,2021,,*56
$PMTKCHN,193292,01272,21322,22152,30212,07132,28322,03252,17272,194292,195172,40001,08112,27001,14262,00000,00000,00000,00000,00000,00000,00000,00000,00000,00000,00000,00000,00000,00000,00000,00000,00000*7A
$GPGGA,050025.000,3516.7405,N,13615.5964,E,1,12,0.89,105.0,M,35.3,M,,*64
$GPGLL,3516.7405,N,13615.5964,E,050025.000,A,A*52
$GPGSA,A,3,193,01,21,22,07,28,03,17,194,195,08,14,1.21,0.89,0.82*36
$GPGSV,4,1,15,195,84,013,17,01,79,346,27,21,58,036,32,194,58,189,29*76
$GPGSV,4,2,15,22,52,121,15,14,43,313,26,08,38,078,11,03,36,158,25*7C
$GPGSV,4,3,15,28,28,317,32,30,27,256,21,17,21,292,27,07,19,215,13*78
$GPGSV,4,4,15,193,17,161,29,27,08,092,,40,05,259,*74
$GPRMC,050025.000,A,3516.7405,N,13615.5964,E,0.89,49.23,160521,,,A*59
$GPVTG,49.23,T,,M,0.89,N,1.65,K,A*02
$GPZDA,050025.000,16,05,2021,,*57
$PMTKCHN,193292,01272,21322,22142,30212,07132,28322,03252,17262,194292,195162,40001,08122,27001,14262,00000,00000,00000,00000,00000,00000,00000,00000,00000,00000,00000,00000,00000,00000,00000,00000,00000*78
$GPGGA,050026.000,3516.7396,N,13615.5963,E,1,12,0.89,104.4,M,35.3,M,,*68
$GPGLL,3516.7396,N,13615.5963,E,050026.000,A,A*5B
$GPGSA,A,3,193,01,21,22,07,28,03,17,194,195,08,14,1.21,0.89,0.82*36
$GPGSV,4,1,15,195,84,013,16,01,79,346,27,21,58,036,32,194,58,189,29*77
$GPGSV,4,2,15,22,52,121,14,14,43,313,26,08,38,078,12,03,36,158,25*7E
$GPGSV,4,3,15,28,28,317,32,30,27,256,21,17,21,292,26,07,19,215,13*79
$GPGSV,4,4,15,193,17,161,29,27,08,092,,40,05,259,*74
$GPRMC,050026.000,A,3516.7396,N,13615.5963,E,0.73,59.82,160521,,,A*5F
$GPVTG,59.82,T,,M,0.73,N,1.36,K,A*0B
$GPZDA,050026.000,16,05,2021,,*54
$PMTKCHN,193292,01272,21322,22152,30212,07122,28322,03252,17262,194292,195162,40001,08132,27001,14262,00000,00000,00000,00000,00000,00000,00000,00000,00000,00000,00000,00000,00000,00000,00000,00000,00000*79
$GPGGA,050027.000,3516.7390,N,13615.5962,E,1,12,0.89,104.0,M,35.3,M,,*6A
$GPGLL,3516.7390,N,13615.5962,E,050027.000,A,A*5D
$GPGSA,A,3,193,01,21,22,07,28,03,17,194,195,08,14,1.21,0.89,0.82*36
$GPGSV,4,1,15,195,84,013,16,01,79,346,27,21,58,036,32,194,58,189,29*77
$GPGSV,4,2,15,22,52,121,15,14,43,313,26,08,38,078,13,03,36,158,25*7E
$GPGSV,4,3,15,28,28,317,32,30,27,256,21,17,21,292,26,07,19,215,12*78
$GPGSV,4,4,15,193,17,161,29,27,08,092,,40,05,259,*74
$GPRMC,050027.000,A,3516.7390,N,13615.5962,E,0.55,59.82,160521,,,A*5D
$GPVTG,59.82,T,,M,0.55,N,1.01,K,A*0B
$GPZDA,050027.000,16,05,2021,,*55
$PMTKCHN,193292,01272,21322,22162,30212,07152,28322,03242,17252,194292,195162,42001,08122,27001,14262,00000,00000,00000,00000,00000,00000,00000,00000,00000,00000,00000,00000,00000,00000,00000,00000,00000*7C
$GPGGA,050028.000,3516.7387,N,13615.5963,E,1,12,0.89,103.5,M,35.3,M,,*60
$GPGLL,3516.7387,N,13615.5963,E,050028.000,A,A*55
$GPGSA,A,3,193,01,21,22,07,28,03,17,194,195,08,14,1.21,0.89,0.82*36
$GPGSV,4,1,15,195,84,013,16,01,79,346,27,21,58,036,32,194,58,189,29*77
$GPGSV,4,2,15,22,52,121,16,42,48,173,,14,43,313,26,08,38,078,12*7E
$GPGSV,4,3,15,03,36,158,24,28,28,317,32,30,27,256,21,17,21,292,25*7D
$GPGSV,4,4,15,07,19,215,15,193,17,161,29,27,08,092,*76
$GPRMC,050028.000,A,3516.7387,N,13615.5963,E,0.53,59.82,160521,,,A*53
$GPVTG,59.82,T,,M,0.53,N,0.98,K,A*0C
$GPZDA,050028.000,16,05,2021,,*5A
$PMTKCHN,193292,01272,21322,22142,30222,07132,28322,03232,17252,194292,195162,42001,08122,27001,14262,00000,00000,00000,00000,00000,00000,00000,00000,00000,00000,00000,00000,00000,00000,00000,00000,00000*7C
$GPGGA,050029.000,3516.7384,N,13615.5966,E,1,12,0.89,102.6,M,35.3,M,,*65
$GPGLL,3516.7384,N,13615.5966,E,050029.000,A,A*52
$GPGSA,A,3,193,01,21,22,07,28,03,17,194,195,08,14,1.21,0.89,0.82*36
$GPGSV,4,1,15,195,84,013,16,01,79,346,27,21,58,036,32,194,58,189,29*77
$GPGSV,4,2,15,22,52,121,14,42,48,173,,14,43,313,26,08,38,078,12*7C
$GPGSV,4,3,15,03,36,158,23,28,28,317,32,30,27,256,22,17,21,292,25*79
$GPGSV,4,4,15,07,19,215,13,193,17,161,29,27,08,092,*70
$GPRMC,050029.000,A,3516.7384,N,13615.5966,E,0.62,53.95,160521,,,A*5A
$GPVTG,53.95,T,,M,0.62,N,1.14,K,A*07
$GPZDA,050029.000,16,05,2021,,*5B
$PMTKCHN,193292,01272,21322,22122,30222,07122,28322,03232,17252,194292,195162,42001,08122,27001,14262,00000,00000,00000,00000,00000,00000,00000,00000,00000,00000,00000,00000,00000,00000,00000,00000,00000*7B
$GPGGA,050030.000,3516.7377,N,13615.5966,E,1,11,1.06,101.0,M,35.3,M,,*61
$GPGLL,3516.7377,N,13615.5966,E,050030.000,A,A*56
$GPGSA,A,3,193,01,21,22,07,28,03,17,194,195,14,,1.37,1.06,0.86*3B
$GPGSV,4,1,15,195,84,013,16,01,79,346,27,21,58,036,32,194,58,189,29*77
$GPGSV,4,2,15,22,52,121,12,42,48,173,,14,43,313,26,08,38,078,*79
$GPGSV,4,3,15,03,36,158,23,28,28,317,32,30,27,256,22,17,21,292,25*79
$GPGSV,4,4,15,07,19,215,12,193,17,161,29,27,08,092,*71
$GPRMC,050030.000,A,3516.7377,N,13615.5966,E,0.55,53.95,160521,,,A*5A
$GPVTG,53.95,T,,M,0.55,N,1.03,K,A*05
$GPZDA,050030.000,16,05,2021,,*53
$PMTKCHN,193282,01272,21322,22112,30222,07122,28312,03242,17242,194292,195162,42001,08132,27001,14272,00000,00000,00000,00000,00000,00000,00000,00000,00000,00000,00000,00000,00000,00000,00000,00000,00000*7C
$GPGGA,050031.000,3516.7376,N,13615.5970,E,1,11,1.06,99.6,M,35.3,M,,*50
$GPGLL,3516.7376,N,13615.5970,E,050031.000,A,A*51
$GPGSA,A,3,193,01,21,22,07,28,03,17,194,195,14,,1.37,1.06,0.86*3B
$GPGSV,4,1,15,195,84,013,16,01,79,346,27,21,58,036,32,194,58,189,29*77
$GPGSV,4,2,15,22,52,121,11,42,48,173,,14,43,313,27,08,38,078,*7B
$GPGSV,4,3,15,03,36,158,24,28,28,317,31,30,27,256,22,17,21,292,24*7C
$GPGSV,4,4,15,07,19,215,12,193,17,161,28,27,08,092,*70
$GPRMC,050031.000,A,3516.7376,N,13615.5970,E,0.51,53.95,160521,,,A*59
$GPVTG,53.95,T,,M,0.51,N,0.94,K,A*0E
$GPZDA,050031.000,16,05,2021,,*52
$PMTKCHN,193282,01272,21322,22122,30222,07122,28312,03242,17242,194292,195162,42001,08132,27001,14272,00000,00000,00000,00000,00000,00000,00000,00000,00000,00000,00000,00000,00000,00000,00000,00000,00000*7F
$GPGGA,050032.000,3516.7372,N,13615.5973,E,1,11,1.06,98.7,M,35.3,M,,*54
$GPGLL,3516.7372,N,13615.5973,E,050032.000,A,A*55
$GPGSA,A,3,193,01,21,22,07,28,03,17,194,195,14,,1.37,1.06,0.86*3B
$GPGSV,4,1,15,195,84,013,16,01,79,346,27,21,58,036,32,194,58,189,29*77
$GPGSV,4,2,15,22,52,121,12,42,48,173,,14,43,313,27,08,38,078,*78
$GPGSV,4,3,15,03,36,158,24,28,28,317,31,30,27,256,22,17,21,292,24*7C
$GPGSV,4,4,15,07,19,215,12,193,17,161,28,27,08,092,*70
$GPRMC,050032.000,A,3516.7372,N,13615.5973,E,0.45,53.95,160521,,,A*58
$GPVTG,53.95,T,,M,0.45,N,0.83,K,A*0D
$GPZDA,050032.000,16,05,2021,,*51
$PMTKCHN,193282,01272,21312,22122,30212,07122,28312,03232,17232,194292,195162,42001,08001,27001,14282,00000,00000,00000,00000,00000,00000,00000,00000,00000,00000,00000,00000,00000,00000,00000,00000,00000*71
$GPGGA,050033.000,3516.7369,N,13615.5977,E,1,11,1.06,97.6,M,35.3,M,,*55
$GPGLL,3516.7369,N,13615.5977,E,050033.000,A,A*5A
$GPGSA,A,3,193,01,21,22,07,28,03,17,194,195,14,,1.37,1.06,0.86*3B
$GPGSV,4,1,15,195,84,013,16,01,79,346,27,21,58,036,31,194,58,189,29*74
$GPGSV,4,2,15,22,52,121,12,42,48,173,,14,43,313,28,08,38,078,*77
$GPGSV,4,3,15,03,36,158,23,28,28,317,31,30,27,256,21,17,21,292,23*7F
$GPGSV,4,4,15,07,19,215,12,193,17,161,28,27,08,092,*70
$GPRMC,050033.000,A,3516.7369,N,13615.5977,E,0.62,58.40,160521,,,A*51
$GPVTG,58.40,T,,M,0.62,N,1.15,K,A*05
$GPZDA,050033.000,16,05,2021,,*50
$PMTKCHN,193282,01262,21312,22112,30212,07142,28312,03252,17232,194292,195162,42001,08001,27001,14282,00000,00000,00000,00000,00000,00000,00000,00000,00000,00000,00000,00000,00000,00000,00000,00000,00000*73
$GPGGA,050034.000,3516.7357,N,13615.5978,E,1,11,1.06,95.7,M,35.3,M,,*53
$GPGLL,3516.7357,N,13615.5978,E,050034.000,A,A*5F
$GPGSA,A,3,193,01,21,22,07,28,03,17,194,195,14,,1.37,1.06,0.86*3B
$GPGSV,4,1,15,195,84,013,16,01,79,346,26,21,58,036,31,194,58,189,29*75
$GPGSV,4,2,15,22,52,121,11,42,48,173,,14,43,313,28,08,38,078,*74
$GPGSV,4,3,15,03,36,158,25,28,28,317,31,30,27,256,21,17,21,292,23*79
$GPGSV,4,4,15,07,19,215,14,193,17,161,28,27,08,092,*76
$GPRMC,050034.000,A,3516.7357,N,13615.5978,E,0.46,58.40,160521,,,A*52
$GPVTG,58.40,T,,M,0.46,N,0.85,K,A*0B
$GPZDA,050034.000,16,05,2021,,*57
$PMTKCHN,193282,01272,21312,22132,30212,07132,28312,03232,17232,194292,195162,42001,08001,27001,14282,00000,00000,00000,00000,00000,00000,00000,00000,00000,00000,00000,00000,00000,00000,00000,00000,00000*71
$GPGGA,050035.000,3516.7352,N,13615.5980,E,1,10,1.14,94.9,M,35.3,M,,*5D
$GPGLL,3516.7352,N,13615.5980,E,050035.000,A,A*5C
$GPGSA,A,3,193,01,21,07,28,03,17,194,195,14,,,1.42,1.14,0.86*3A
$GPGSV,4,1,15,195,84,013,16,01,79,346,27,21,58,036,31,194,58,189,29*74
$GPGSV,4,2,15,22,52,121,,42,48,173,,14,43,313,28,08,38,078,*74
$GPGSV,4,3,15,03,36,158,23,28,28,317,31,30,27,256,21,17,21,292,23*7F
$GPGSV,4,4,15,07,19,215,13,193,17,161,28,27,08,092,*71
$GPRMC,050035.000,A,3516.7352,N,13615.5980,E,0.45,58.40,160521,,,A*52
$GPVTG,58.40,T,,M,0.45,N,0.84,K,A*09
$GPZDA,050035.000,16,05,2021,,*56
$PMTKCHN,193282,01272,21312,22142,30212,07132,28312,03252,17232,194292,195162,42001,08001,27001,14282,00000,00000,00000,00000,00000,00000,00000,00000,00000,00000,00000,00000,00000,00000,00000,00000,00000*70
$GPGGA,050036.000,3516.7346,N,13615.5976,E,1,10,1.14,94.6,M,35.3,M,,*5D
$GPGLL,3516.7346,N,13615.5976,E,050036.000,A,A*53
$GPGSA,A,3,193,01,21,07,28,03,17,194,195,14,,,1.42,1.14,0.86*3A
$GPGSV,4,1,15,195,84,013,16,01,79,346,27,21,58,036,31,194,58,189,29*74
$GPGSV,4,2,15,22,52,121,,42,48,173,,14,44,313,28,08,38,078,*73
$GPGSV,4,3,15,03,36,158,25,28,28,317,31,30,27,256,21,17,21,292,23*79
$GPGSV,4,4,15,07,19,215,13,193,17,161,28,27,08,092,*71
$GPRMC,050036.000,A,3516.7346,N,13615.5976,E,0.28,58.40,160521,,,A*56
$GPVTG,58.40,T,,M,0.28,N,0.53,K,A*08
$GPZDA,050036.000,16,05,2021,,*55
$PMTKCHN,193282,01272,21312,08122,30212,07112,28312,03252,17232,194292,195162,42001,27001,22001,14292,00000,00000,00000,00000,00000,00000,00000,00000,00000,00000,00000,00000,00000,00000,00000,00000,00000*75
$GPGGA,050037.000,3516.7343,N,13615.5978,E,1,10,1.14,93.4,M,35.3,M,,*52
$GPGLL,3516.7343,N,13615.5978,E,050037.000,A,A*59
$GPGSA,A,3,193,01,21,07,28,03,17,194,195,14,,,1.42,1.14,0.86*3A
$GPGSV,4,1,15,195,84,013,16,01,79,346,27,21,58,036,31,194,58,189,29*74
$GPGSV,4,2,15,22,52,121,,42,48,173,,14,44,313,29,08,38,078,*72
$GPGSV,4,3,15,03,36,158,25,28,28,317,31,30,27,256,21,17,21,292,23*79
$GPGSV,4,4,15,07,19,215,11,193,17,161,28,27,08,092,*73
$GPRMC,050037.000,A,3516.7343,N,13615.5978,E,0.30,58.40,160521,,,A*55
$GPVTG,58.40,T,,M,0.30,N,0.55,K,A*07
$GPZDA,050037.000,16,05,2021,,*54
$PMTKCHN,193282,01272,21312,08092,30212,07132,28312,03242,17232,194292,195162,50001,27001,22112,14292,00000,00000,00000,00000,00000,00000,00000,00000,00000,00000,00000,00000,00000,00000,00000,00000,00000*7C
$GPGGA,050038.000,3516.7344,N,13615.5978,E,1,10,1.14,93.0,M,35.3,M,,*5E
$GPGLL,3516.7344,N,13615.5978,E,050038.000,A,A*51
$GPGSA,A,3,193,01,21,07,28,03,17,194,195,14,,,1.42,1.14,0.86*3A
$GPGSV,4,1,15,195,84,013,16,01,79,346,27,21,58,036,31,194,58,189,29*74
$GPGSV,4,2,15,22,52,121,,50,47,195,,14,44,313,29,08,38,078,*76
$GPGSV,4,3,15,03,36,158,24,28,28,317,31,30,27,256,21,17,21,292,23*78
$GPGSV,4,4,15,07,19,215,13,193,17,161,28,27,08,092,*71
$GPRMC,050038.000,A,3516.7344,N,13615.5978,E,0.31,58.40,160521,,,A*5C
$GPVTG,58.40,T,,M,0.31,N,0.57,K,A*04
$GPZDA,050038.000,16,05,2021,,*5B
$PMTKCHN,193282,01272,21312,08112,30202,07132,28312,03242,17232,194292,195162,50001,27001,22132,14292,00000,00000,00000,00000,00000,00000,00000,00000,00000,00000,00000,00000,00000,00000,00000,00000,00000*76
$GPGGA,050039.000,3516.7344,N,13615.5979,E,1,10,1.14,92.7,M,35.3,M,,*58
$GPGLL,3516.7344,N,13615.5979,E,050039.000,A,A*51
$GPGSA,A,3,193,01,21,07,28,03,17,194,195,14,,,1.42,1.14,0.86*3A
$GPGSV,4,1,15,195,84,013,16,01,79,346,27,21,58,036,31,194,58,189,29*74
$GPGSV,4,2,15,22,52,121,,50,47,195,,14,44,313,29,08,38,078,*76
$GPGSV,4,3,15,03,36,158,24,28,28,317,31,30,27,256,20,17,21,292,23*79
$GPGSV,4,4,15,07,19,215,13,193,17,161,28,27,08,092,*71
$GPRMC,050039.000,A,3516.7344,N,13615.5979,E,0.29,58.40,160521,,,A*55
$GPVTG,58.40,T,,M,0.29,N,0.54,K,A*0E
$GPZDA,050039.000,16,05,2021,,*5A
$PMTKCHN,193282,01272,21312,08102,30212,07142,28312,03242,17232,194292,195162,50001,27001,22142,14292,00000,00000,00000,00000,00000,00000,00000,00000,00000,00000,00000,00000,00000,00000,00000,00000,00000*76
$GPGGA,050040.000,3516.7345,N,13615.5979,E,1,10,1.14,92.4,M,35.3,M,,*54
$GPGLL,3516.7345,N,13615.5979,E,050040.000,A,A*5E
$GPGSA,A,3,193,01,21,07,28,03,17,194,195,14,,,1.42,1.14,0.86*3A
$GPGSV,4,1,15,195,84,013,16,01,79,346,27,21,58,036,31,194,58,189,29*74
$GPGSV,4,2,15,22,52,121,,50,47,195,,14,44,313,29,08,38,078,*76
$GPGSV,4,3,15,03,36,158,24,28,28,317,31,30,27,256,21,17,21,292,23*78
$GPGSV,4,4,15,07,19,215,14,193,17,161,28,27,08,092,*76
$GPRMC,050040.000,A,3516.7345,N,13615.5979,E,0.43,58.40,160521,,,A*56
$GPVTG,58.40,T,,M,0.43,N,0.79,K,A*0D
$GPZDA,050040.000,16,05,2021,,*54
$PMTKCHN,193292,01272,21312,08112,30212,07132,28312,03232,17232,194292,195162,50001,27001,22172,14292,00000,00000,00000,00000,00000,00000,00000,00000,00000,00000,00000,00000,00000,00000,00000,00000,00000*75
$GPGGA,050041.000,3516.7346,N,13615.5980,E,1,10,1.14,92.0,M,35.3,M,,*54
$GPGLL,3516.7346,N,13615.5980,E,050041.000,A,A*5A
$GPGSA,A,3,193,01,21,07,28,03,17,194,195,14,,,1.42,1.14,0.86*3A
$GPGSV,4,1,15,195,84,013,16,01,79,346,27,21,58,036,31,194,58,189,29*74
$GPGSV,4,2,15,22,52,121,,50,47,195,,14,44,313,29,08,38,078,*76
$GPGSV,4,3,15,03,36,158,23,28,28,317,31,30,27,256,21,17,21,292,23*7F
$GPGSV,4,4,15,07,19,215,13,193,17,161,29,27,08,092,*70
$GPRMC,050041.000,A,3516.7346,N,13615.5980,E,0.38,58.40,160521,,,A*5E
$GPVTG,58.40,T,,M,0.38,N,0.70,K,A*08
$GPZDA,050041.000,16,05,2021,,*55
$PMTKCHN,193292,01262,21312,22072,30212,07132,28302,03232,17222,194292,195152,50001,08001,27001,14292,00000,00000,00000,00000,00000,00000,00000,00000,00000,00000,00000,00000,00000,00000,00000,00000,00000*75
$GPGGA,050042.000,3516.7346,N,13615.5981,E,1,10,1.14,91.7,M,35.3,M,,*52
$GPGLL,3516.7346,N,13615.5981,E,050042.000,A,A*58
$GPGSA,A,3,193,01,21,07,28,03,17,194,195,14,,,1.42,1.14,0.86*3A
$GPGSV,4,1,15,195,84,013,15,01,79,346,26,21,58,036,31,194,58,189,29*76
$GPGSV,4,2,15,22,52,121,,50,47,195,,14,44,313,29,08,38,078,*76
$GPGSV,4,3,15,03,36,158,23,28,28,317,30,30,27,256,21,17,21,292,22*7F
$GPGSV,4,4,15,07,19,215,13,193,17,161,29,27,08,092,*70
$GPRMC,050042.000,A,3516.7346,N,13615.5981,E,0.33,58.40,160521,,,A*57
$GPVTG,58.40,T,,M,0.33,N,0.61,K,A*03
$GPZDA,050042.000,16,05,2021,,*56
$PMTKCHN,193292,01262,21302,22152,30212,07122,28292,03222,17212,194292,195152,50001,08001,27001,14282,00000,00000,00000,00000,00000,00000,00000,00000,00000,00000,00000,00000,00000,00000,00000,00000,00000*7D
$GPGGA,050043.000,3516.7347,N,13615.5982,E,1,10,1.14,91.4,M,35.3,M,,*52
$GPGLL,3516.7347,N,13615.5982,E,050043.000,A,A*5B
$GPGSA,A,3,193,01,21,07,28,03,17,194,195,14,,,1.42,1.14,0.86*3A
$GPGSV,4,1,15,195,84,013,15,01,79,346,26,21,58,036,30,194,58,189,29*77
$GPGSV,4,2,15,22,52,121,,50,47,195,,14,44,313,28,08,38,078,*77
$GPGSV,4,3,15,03,36,158,22,28,28,317,29,30,27,256,21,17,21,292,21*75
$GPGSV,4,4,15,07,19,215,12,193,17,161,29,27,08,092,*71
$GPRMC,050043.000,A,3516.7347,N,13615.5982,E,0.32,58.40,160521,,,A*55
$GPVTG,58.40,T,,M,0.32,N,0.59,K,A*09
$GPZDA,050043.000,16,05,2021,,*57
$PMTKCHN,193292,01262,21312,22152,30212,07132,28292,03222,17212,194282,195152,50001,08182,27001,14282,00000,00000,00000,00000,00000,00000,00000,00000,00000,00000,00000,00000,00000,00000,00000,00000,00000*76
$GPGGA,050044.000,3516.7347,N,13615.5983,E,1,11,0.91,91.0,M,35.3,M,,*5D
$GPGLL,3516.7347,N,13615.5983,E,050044.000,A,A*5D
$GPGSA,A,3,193,01,21,07,28,03,17,194,195,08,14,,1.23,0.91,0.82*3D
$GPGSV,4,1,15,195,84,013,15,01,79,346,26,21,58,036,31,194,58,189,28*77
$GPGSV,4,2,15,22,53,121,,50,47,195,,14,44,313,28,08,38,078,18*7F
$GPGSV,4,3,15,03,36,158,22,28,28,317,29,30,27,256,21,17,21,292,21*75
$GPGSV,4,4,15,07,19,215,13,193,17,161,29,27,08,092,*70
$GPRMC,050044.000,A,3516.7347,N,13615.5983,E,0.28,58.40,160521,,,A*58
$GPVTG,58.40,T,,M,0.28,N,0.52,K,A*09
$GPZDA,050044.000,16,05,2021,,*50
$PMTKCHN,193292,01252,21312,22172,30222,07172,28292,03222,17212,194282,195152,50001,08142,27001,14282,00000,00000,00000,00000,00000,00000,00000,00000,00000,00000,00000,00000,00000,00000,00000,00000,00000*7C
$GPGGA,050045.000,3516.7347,N,13615.5984,E,1,12,0.89,90.7,M,35.3,M,,*57
$GPGLL,3516.7347,N,13615.5984,E,050045.000,A,A*5B
$GPGSA,A,3,193,01,21,22,07,28,03,17,194,195,08,14,1.21,0.89,0.82*36
$GPGSV,4,1,15,195,84,013,15,01,79,346,25,21,58,036,31,194,58,189,28*74
$GPGSV,4,2,15,22,53,121,17,50,47,195,,14,44,313,28,08,38,078,14*75
$GPGSV,4,3,15,03,36,158,22,28,28,317,29,30,27,256,22,17,21,292,21*76
$GPGSV,4,4,15,07,19,215,17,193,17,161,29,27,08,092,*74
$GPRMC,050045.000,A,3516.7347,N,13615.5984,E,0.22,58.40,160521,,,A*54
$GPVTG,58.40,T,,M,0.22,N,0.42,K,A*02
$GPZDA,050045.000,16,05,2021,,*51
$PMTKCHN,193292,01262,21312,22182,30222,07142,28292,03222,17212,194292,195152,50001,08132,27001,14282,00000,00000,00000,00000,00000,00000,00000,00000,00000,00000,00000,00000,00000,00000,00000,00000,00000*75
$GPGGA,050046.000,3516.7347,N,13615.5985,E,1,12,0.89,90.4,M,35.3,M,,*56
$GPGLL,3516.7347,N,13615.5985,E,050046.000,A,A*59
$GPGSA,A,3,193,01,21,22,07,28,03,17,194,195,08,14,1.21,0.89,0.82*36
$GPGSV,4,1,15,195,84,013,15,01,79,346,26,21,58,036,31,194,58,189,29*76
$GPGSV,4,2,15,22,53,121,18,50,47,195,,14,44,313,28,08,38,078,13*7D
$GPGSV,4,3,15,03,36,158,22,28,28,317,29,30,27,256,22,17,21,292,21*76
$GPGSV,4,4,15,07,19,215,14,193,17,161,29,27,08,092,*77
$GPRMC,050046.000,A,3516.7347,N,13615.5985,E,0.35,58.40,160521,,,A*50
$GPVTG,58.40,T,,M,0.35,N,0.66,K,A*02
$GPZDA,050046.000,16,05,2021,,*52
$PMTKCHN,193292,01262,21312,22182,30232,07152,28292,03232,17212,194292,195162,44001,08132,27001,14292,00000,00000,00000,00000,00000,00000,00000,00000,00000,00000,00000,00000,00000,00000,00000,00000,00000*73
$GPGGA,050047.000,3516.7347,N,13615.5986,E,1,12,0.89,90.1,M,35.3,M,,*51
$GPGLL,3516.7347,N,13615.5986,E,050047.000,A,A*5B
$GPGSA,A,3,193,01,21,22,07,28,03,17,194,195,08,14,1.21,0.89,0.82*36
$GPGSV,4,1,15,195,84,013,16,01,79,346,26,21,58,036,31,194,58,189,29*75
$GPGSV,4,2,15,22,53,121,18,14,44,313,29,08,38,078,13,03,36,158,23*7C
$GPGSV,4,3,15,28,28,317,29,30,27,256,23,17,21,292,21,07,19,215,15*70
$GPGSV,4,4,15,193,17,161,29,27,08,092,,44,06,258,*72
$GPRMC,050047.000,A,3516.7347,N,13615.5986,E,0.47,58.40,160521,,,A*57
$GPVTG,58.40,T,,M,0.47,N,0.87,K,A*08
$GPZDA,050047.000,16,05,2021,,*53
$PMTKCHN,193292,01272,21312,22182,30232,07142,28292,03232,17212,194292,195152,44001,08122,27001,14292,00000,00000,00000,00000,00000,00000,00000,00000,00000,00000,00000,00000,00000,00000,00000,00000,00000*71
$GPGGA,050048.000,3516.7347,N,13615.5988,E,1,12,0.89,89.8,M,35.3,M,,*51
$GPGLL,3516.7347,N,13615.5988,E,050048.000,A,A*5A
$GPGSA,A,3,193,01,21,22,07,28,03,17,194,195,08,14,1.21,0.89,0.82*36
$GPGSV,4,1,15,195,84,013,15,01,79,346,27,21,58,036,31,194,58,189,29*77
$GPGSV,4,2,15,22,53,121,18,14,44,313,29,08,38,078,12,03,36,158,23*7D
$GPGSV,4,3,15,28,28,317,29,30,27,256,23,17,21,292,21,07,19,215,14*71
$GPGSV,4,4,15,193,17,161,29,27,08,092,,44,06,258,*72
$GPRMC,050048.000,A,3516.7347,N,13615.5988,E,0.45,58.40,160521,,,A*54
$GPVTG,58.40,T,,M,0.45,N,0.83,K,A*0E
$GPZDA,050048.000,16,05,2021,,*5C
$PMTKCHN,193292,01262,21312,22182,30232,07122,28292,03232,17212,194292,195162,44001,08122,27001,14292,00000,00000,00000,00000,00000,00000,00000,00000,00000,00000,00000,00000,00000,00000,00000,00000,00000*75
$GPGGA,050049.000,3516.7347,N,13615.5989,E,1,12,0.89,89.5,M,35.3,M,,*5C
$GPGLL,3516.7347,N,13615.5989,E,050049.000,A,A*5A
$GPGSA,A,3,193,01,21,22,07,28,03,17,194,195,08,14,1.21,0.89,0.82*36
$GPGSV,4,1,15,195,84,013,16,01,79,346,26,21,58,036,31,194,58,189,29*75
$GPGSV,4,2,15,22,53,121,18,14,44,313,29,08,38,078,12,03,36,158,23*7D
$GPGSV,4,3,15,28,28,317,29,30,27,256,23,17,21,292,21,07,19,215,12*77
$GPGSV,4,4,15,193,17,161,29,27,08,092,,44,06,258,*72
$GPRMC,050049.000,A,3516.7347,N,13615.5989,E,0.48,58.40,160521,,,A*59
$GPVTG,58.40,T,,M,0.48,N,0.89,K,A*09
$GPZDA,050049.000,16,05,2021,,*5D
$PMTKCHN,193292,01262,21312,22182,30232,07162,28292,03232,17212,194292,195142,44001,08001,27001,14292,00000,00000,00000,00000,00000,00000,00000,00000,00000,00000,00000,00000,00000,00000,00000,00000,00000*73
$GPGGA,050050.000,3516.7348,N,13615.5991,E,1,11,1.06,89.2,M,35.3,M,,*50
$GPGLL,3516.7348,N,13615.5991,E,050050.000,A,A*54
$GPGSA,A,3,193,01,21,22,07,28,03,17,194,195,14,,1.36,1.06,0.86*3A
$GPGSV,4,1,15,195,84,013,14,01,79,346,26,21,58,036,31,194,58,189,29*77
$GPGSV,4,2,15,22,53,121,18,14,44,313,29,08,38,078,,03,36,158,23*7E
$GPGSV,4,3,15,28,29,317,29,30,27,256,23,17,21,292,21,07,19,215,16*72
$GPGSV,4,4,15,193,17,161,29,27,08,092,,44,06,258,*72
$GPRMC,050050.000,A,3516.7348,N,13615.5991,E,0.48,58.40,160521,,,A*57
$GPVTG,58.40,T,,M,0.48,N,0.88,K,A*08
$GPZDA,050050.000,16,05,2021,,*55
$PMTKCHN,193292,01262,21312,22192,30232,07142,28292,03232,17212,194292,195142,44001,08001,27001,14292,00000,00000,00000,00000,00000,00000,00000,00000,00000,00000,00000,00000,00000,00000,00000,00000,00000*70
$GPGGA,050051.000,3516.7348,N,13615.5992,E,1,11,1.06,88.9,M,35.3,M,,*58
$GPGLL,3516.7348,N,13615.5992,E,050051.000,A,A*56
$GPGSA,A,3,193,01,21,22,07,28,03,17,194,195,14,,1.37,1.06,0.86*3B
$GPGSV,4,1,15,195,84,013,14,01,79,346,26,21,58,036,31,194,58,189,29*77
$GPGSV,4,2,15,22,53,121,19,14,44,313,29,08,38,078,,03,36,158,23*7F
$GPGSV,4,3,15,28,29,317,29,30,27,256,23,17,21,292,21,07,19,215,14*70
$GPGSV,4,4,15,193,17,161,29,27,08,092,,44,06,258,*72
$GPRMC,050051.000,A,3516.7348,N,13615.5992,E,0.37,58.40,160521,,,A*5D
$GPVTG,58.40,T,,M,0.37,N,0.68,K,A*0E
$GPZDA,050051.000,16,05,2021,,*54
$PMTKCHN,193292,01262,21312,22192,30232,07152,28292,03232,17212,194292,195132,44001,08162,27001,14292,00000,00000,00000,00000,00000,00000,00000,00000,00000,00000,00000,00000,00000,00000,00000,00000,00000*72
$GPGGA,050052.000,3516.7348,N,13615.5993,E,1,11,1.06,88.6,M,35.3,M,,*55
$GPGLL,3516.7348,N,13615.5993,E,050052.000,A,A*54
$GPGSA,A,3,193,01,21,22,07,28,03,17,194,195,14,,1.36,1.06,0.86*3A
$GPGSV,4,1,15,195,84,013,13,01,79,346,26,21,58,036,31,194,58,189,29*70
$GPGSV,4,2,15,22,53,121,19,14,44,313,29,08,38,078,,03,36,158,23*7F
$GPGSV,4,3,15,28,29,317,29,30,27,255,23,17,21,292,21,07,19,215,15*72
$GPGSV,4,4,15,193,17,161,29,27,08,092,,44,06,258,*72
$GPRMC,050052.000,A,3516.7348,N,13615.5993,E,0.31,58.40,160521,,,A*59
$GPVTG,58.40,T,,M,0.31,N,0.57,K,A*04
$GPZDA,050052.000,16,05,2021,,*57
$PMTKCHN,193292,01262,21312,22182,30222,07142,28292,03232,17212,194292,195142,44001,08132,27001,14292,00000,00000,00000,00000,00000,00000,00000,00000,00000,00000,00000,00000,00000,00000,00000,00000,00000*71
$GPGGA,050053.000,3516.7348,N,13615.5994,E,1,11,1.06,88.4,M,35.3,M,,*51
$GPGLL,3516.7348,N,13615.5994,E,050053.000,A,A*52
$GPGSA,A,3,193,01,21,22,07,28,03,17,194,195,14,,1.36,1.06,0.86*3A
$GPGSV,4,1,15,195,84,013,14,01,79,346,26,21,58,036,31,194,58,189,29*77
$GPGSV,4,2,15,22,53,121,18,14,44,313,29,08,38,078,,03,36,158,23*7E
$GPGSV,4,3,15,28,29,317,29,30,27,255,22,17,21,292,21,07,19,215,14*72
$GPGSV,4,4,15,193,17,161,29,27,08,092,,44,06,258,*72
$GPRMC,050053.000,A,3516.7348,N,13615.5994,E,0.26,58.40,160521,,,A*59
$GPVTG,58.40,T,,M,0.26,N,0.48,K,A*0C
$GPZDA,050053.000,16,05,2021,,*56
$PMTKCHN,193292,01262,21312,22182,30232,07162,28292,03232,17212,194292,195162,44001,08112,27001,14292,00000,00000,00000,00000,00000,00000,00000,00000,00000,00000,00000,00000,00000,00000,00000,00000,00000*72
$GPGGA,050054.000,3516.7348,N,13615.5995,E,1,11,1.06,88.2,M,35.3,M,,*51
$GPGLL,3516.7348,N,13615.5995,E,050054.000,A,A*54
$GPGSA,A,3,193,01,21,22,07,28,03,17,194,195,14,,1.37,1.06,0.86*3B
$GPGSV,4,1,15,195,84,013,16,01,79,346,26,21,58,036,31,194,58,189,29*75
$GPGSV,4,2,15,22,53,121,18,14,44,313,29,08,38,078,,03,36,158,23*7E
$GPGSV,4,3,15,28,29,317,29,30,27,255,23,17,21,292,21,07,19,215,16*71
$GPGSV,4,4,15,193,17,161,29,27,08,092,,44,06,258,*72
$GPRMC,050054.000,A,3516.7348,N,13615.5995,E,0.26,58.40,160521,,,A*5F
$GPVTG,58.40,T,,M,0.26,N,0.49,K,A*0D
$GPZDA,050054.000,16,05,2021,,*51
$PMTKCHN,193292,01272,21322,22182,30242,07172,28292,03232,17212,194292,195192,44001,08112,27001,14282,00000,00000,00000,00000,00000,00000,00000,00000,00000,00000,00000,00000,00000,00000,00000,00000,00000*78
$GPGGA,050055.000,3516.7348,N,13615.5996,E,1,11,1.06,88.1,M,35.3,M,,*50
$GPGLL,3516.7348,N,13615.5996,E,050055.000,A,A*56
$GPGSA,A,3,193,01,21,22,07,28,03,17,194,195,14,,1.36,1.06,0.86*3A
$GPGSV,4,1,15,195,84,013,19,01,79,346,27,21,58,036,32,194,58,189,29*78
$GPGSV,4,2,15,22,53,121,18,14,44,313,28,08,38,078,,03,36,158,23*7F
$GPGSV,4,3,15,28,29,317,29,30,27,255,24,17,21,292,21,07,19,215,17*77
$GPGSV,4,4,15,193,17,161,29,27,08,092,,44,06,258,*72
$GPRMC,050055.000,A,3516.7348,N,13615.5996,E,0.31,58.40,160521,,,A*5B
$GPVTG,58.40,T,,M,0.31,N,0.58,K,A*0B
$GPZDA,050055.000,16,05,2021,,*50
$PMTKCHN,193282,01282,21322,22182,30242,07212,28282,03222,17222,194292,195232,44001,08122,27001,14282,00000,00000,00000,00000,00000,00000,00000,00000,00000,00000,00000,00000,00000,00000,00000,00000,00000*7A
$GPGGA,050056.000,3516.7348,N,13615.5997,E,1,11,1.06,88.0,M,35.3,M,,*53
$GPGLL,3516.7348,N,13615.5997,E,050056.000,A,A*54
$GPGSA,A,3,193,01,21,22,07,28,03,17,194,195,14,,1.36,1.06,0.86*3A
$GPGSV,4,1,15,195,84,013,23,01,79,346,28,21,58,036,32,194,57,189,29*71
$GPGSV,4,2,15,22,53,121,18,14,44,313,28,08,38,078,,03,36,158,22*7E
$GPGSV,4,3,15,28,29,317,28,30,27,255,24,17,21,292,22,07,19,215,21*70
$GPGSV,4,4,15,193,17,161,28,27,08,092,,44,06,258,*73
$GPRMC,050056.000,A,3516.7348,N,13615.5997,E,0.35,58.40,160521,,,A*5D
$GPVTG,58.40,T,,M,0.35,N,0.66,K,A*02
$GPZDA,050056.000,16,05,2021,,*53
$PMTKCHN,193282,01272,21322,22182,30232,07172,28292,03222,17222,194292,195202,40001,08001,27001,14282,00000,00000,00000,00000,00000,00000,00000,00000,00000,00000,00000,00000,00000,00000,00000,00000,00000*71
$GPGGA,050057.000,3516.7349,N,13615.5998,E,1,11,1.06,87.8,M,35.3,M,,*5B
$GPGLL,3516.7349,N,13615.5998,E,050057.000,A,A*5B
$GPGSA,A,3,193,01,21,22,07,28,03,17,194,195,14,,1.37,1.06,0.86*3B
$GPGSV,4,1,15,195,84,013,20,01,79,346,27,21,58,036,32,194,57,189,29*7D
$GPGSV,4,2,15,22,53,121,18,14,44,313,28,08,38,078,,03,36,158,22*7E
$GPGSV,4,3,15,28,29,317,29,30,27,255,23,17,21,292,22,07,19,215,17*73
$GPGSV,4,4,15,193,17,161,28,27,08,092,,40,05,259,*75
$GPRMC,050057.000,A,3516.7349,N,13615.5998,E,0.33,58.40,160521,,,A*54
$GPVTG,58.40,T,,M,0.33,N,0.61,K,A*03
$GPZDA,050057.000,16,05,2021,,*52
$PMTKCHN,193282,01262,21322,22182,30232,07142,28292,03222,17222,194292,195172,40001,08002,27001,14282,00000,00000,00000,00000,00000,00000,00000,00000,00000,00000,00000,00000,00000,00000,00000,00000,00000*74
$GPGGA,050058.000,3516.7348,N,13615.5999,E,1,11,1.06,87.7,M,35.3,M,,*5B
$GPGLL,3516.7348,N,13615.5999,E,050058.000,A,A*54
$GPGSA,A,3,193,01,21,22,07,28,03,17,194,195,14,,1.37,1.06,0.86*3B
$GPGSV,4,1,15,195,84,013,17,01,79,347,26,21,58,036,32,194,57,189,29*79
$GPGSV,4,2,15,22,53,121,18,14,44,313,28,08,38,078,,03,36,158,22*7E
$GPGSV,4,3,15,28,29,317,29,30,27,255,23,17,21,292,22,07,19,215,14*70
$GPGSV,4,4,15,193,17,161,28,27,08,092,,40,05,259,*75
$GPRMC,050058.000,A,3516.7348,N,13615.5999,E,0.39,58.40,160521,,,A*51
$GPVTG,58.40,T,,M,0.39,N,0.72,K,A*0B
$GPZDA,050058.000,16,05,2021,,*5D
$PMTKCHN,193282,01262,21322,22182,30232,07142,28292,03222,17222,194292,195172,40001,08112,27001,14272,00000,00000,00000,00000,00000,00000,00000,00000,00000,00000,00000,00000,00000,00000,00000,00000,00000*7B
$GPGGA,050059.000,3516.7348,N,13615.6001,E,1,11,1.06,87.6,M,35.3,M,,*50
$GPGLL,3516.7348,N,13615.6001,E,050059.000,A,A*5E
$GPGSA,A,3,193,01,21,22,07,28,03,17,194,195,14,,1.36,1.06,0.86*3A
$GPGSV,4,1,15,195,84,013,17,01,79,347,26,21,58,036,32,194,57,189,29*79
$GPGSV,4,2,15,22,53,121,18,14,44,313,27,08,38,078,,03,36,158,22*71
$GPGSV,4,3,15,28,29,317,29,30,27,255,23,17,21,292,22,07,19,215,14*70
$GPGSV,4,4,15,193,17,161,28,27,08,092,,40,05,259,*75
$GPRMC,050059.000,A,3516.7348,N,13615.6001,E,0.34,58.40,160521,,,A*56
$GPVTG,58.40,T,,M,0.34,N,0.63,K,A*06
$GPZDA,050059.000,16,05,2021,,*5C
$PMTKCHN,193282,01262,21322,22182,30222,07142,28302,03222,17212,194292,195172,40001,08112,27001,14272,00000,00000,00000,00000,00000,00000,00000,00000,00000,00000,00000,00000,00000,00000,00000,00000,00000*71
$GPGGA,050100.000,3516.7348,N,13615.6002,E,1,11,1.06,87.4,M,35.3,M,,*5C
$GPGLL,3516.7348,N,13615.6002,E,050100.000,A,A*50
$GPGSA,A,3,193,01,21,22,07,28,03,17,194,195,14,,1.36,1.06,0.86*3A
$GPGSV,4,1,15,195,84,013,17,01,79,347,26,21,58,036,32,194,57,189,29*79
$GPGSV,4,2,15,22,53,121,18,14,44,313,27,08,38,078,,03,36,158,22*71
$GPGSV,4,3,15,28,29,317,30,30,27,255,22,17,21,292,21,07,19,215,14*7A
$GPGSV,4,4,15,193,17,161,28,27,08,092,,40,05,259,*75
$GPRMC,050100.000,A,3516.7348,N,13615.6002,E,0.39,58.40,160521,,,A*55
$GPVTG,58.40,T,,M,0.39,N,0.72,K,A*0B
$GPZDA,050100.000,16,05,2021,,*51
$PMTKCHN,193282,01262,21322,22182,30222,07142,28302,03222,17212,194292,195172,40001,08092,27001,14272,00000,00000,00000,00000,00000,00000,00000,00000,00000,00000,00000,00000,00000,00000,00000,00000,00000*78
$GPGGA,050101.000,3516.7348,N,13615.6003,E,1,11,1.06,87.3,M,35.3,M,,*5B
$GPGLL,3516.7348,N,13615.6003,E,050101.000,A,A*50
$GPGSA,A,3,193,01,21,22,07,28,03,17,194,195,14,,1.36,1.06,0.86*3A
$GPGSV,4,1,15,195,84,013,17,01,79,347,26,21,58,036,32,194,57,189,29*79
$GPGSV,4,2,15,22,53,121,18,14,44,313,27,08,38,078,,03,36,158,22*71
$GPGSV,4,3,15,28,29,317,30,30,27,255,22,17,21,292,21,07,19,215,14*7A
$GPGSV,4,4,15,193,17,161,28,27,08,092,,40,05,259,*75
$GPRMC,050101.000,A,3516.7348,N,13615.6003,E,0.25,58.40,160521,,,A*58
$GPVTG,58.40,T,,M,0.25,N,0.47,K,A*00
$GPZDA,050101.000,16,05,2021,,*50
$PMTKCHN,193282,01262,21312,22182,30222,07152,28302,03212,17212,194292,195172,40001,08112,27001,14272,00000,00000,00000,00000,00000,00000,00000,00000,00000,00000,00000,00000,00000,00000,00000,00000,00000*70
$GPGGA,050102.000,3516.7348,N,13615.6004,E,1,11,1.06,87.2,M,35.3,M,,*5E
$GPGLL,3516.7348,N,13615.6004,E,050102.000,A,A*54
$GPGSA,A,3,193,01,21,22,07,28,03,17,194,195,14,,1.36,1.06,0.86*3A
$GPGSV,4,1,15,195,84,013,17,01,79,347,26,21,58,036,31,194,57,189,29*7A
$GPGSV,4,2,15,22,53,121,18,14,44,313,27,08,38,078,,03,36,158,21*72
$GPGSV,4,3,15,28,29,317,30,30,27,255,22,17,21,292,21,07,19,215,15*7B
$GPGSV,4,4,15,193,17,161,28,27,08,092,,40,05,259,*75
$GPRMC,050102.000,A,3516.7348,N,13615.6004,E,0.09,58.40,160521,,,A*52
$GPVTG,58.40,T,,M,0.09,N,0.16,K,A*0A
$GPZDA,050102.000,16,05,2021,,*53
$PMTKCHN,193282,01262,21312,22182,30222,07142,28302,03212,17212,194292,195172,40001,08001,27001,14272,00000,00000,00000,00000,00000,00000,00000,00000,00000,00000,00000,00000,00000,00000,00000,00000,00000*72
$GPGGA,050103.000,3516.7348,N,13615.6004,E,1,11,1.06,87.1,M,35.3,M,,*5C
$GPGLL,3516.7348,N,13615.6004,E,050103.000,A,A*55
$GPGSA,A,3,193,01,21,22,07,28,03,17,194,195,14,,1.36,1.06,0.86*3A
$GPGSV,4,1,15,195,84,013,17,01,79,347,26,21,58,036,31,194,57,189,29*7A
$GPGSV,4,2,15,22,53,121,18,14,44,313,27,08,38,078,,03,36,158,21*72
$GPGSV,4,3,15,28,29,317,30,30,27,255,22,17,21,292,21,07,19,215,14*7A
$GPGSV,4,4,15,193,17,161,28,27,08,092,,40,05,259,*75
$GPRMC,050103.000,A,3516.7348,N,13615.6004,E,0.04,58.40,160521,,,A*5E
$GPVTG,58.40,T,,M,0.04,N,0.07,K,A*07
$GPZDA,050103.000,16,05,2021,,*52
$PMTKCHN,193282,01262,21312,22182,30222,07142,28302,03212,17212,194292,195172,40001,08162,27001,14272,00000,00000,00000,00000,00000,00000,00000,00000,00000,00000,00000,00000,00000,00000,00000,00000,00000*76
$GPGGA,050104.000,3516.7348,N,13615.6004,E,1,11,1.06,87.0,M,35.3,M,,*5A
$GPGLL,3516.7348,N,13615.6004,E,050104.000,A,A*52
$GPGSA,A,3,193,01,21,22,07,28,03,17,194,195,14,,1.36,1.06,0.86*3A
$GPGSV,4,1,15,195,84,013,17,01,79,347,26,21,58,036,31,194,57,189,29*7A
$GPGSV,4,2,15,22,53,121,18,14,44,313,27,08,38,078,,03,36,158,21*72
$GPGSV,4,3,15,28,29,317,30,30,27,255,22,17,21,292,21,07,18,215,14*7B
$GPGSV,4,4,15,193,17,161,28,27,08,092,,40,05,259,*75
$GPRMC,050104.000,A,3516.7348,N,13615.6004,E,0.04,58.40,160521,,,A*59
$GPVTG,58.40,T,,M,0.04,N,0.08,K,A*08
$GPZDA,050104.000,16,05,2021,,*55
$PMTKCHN,193282,01262,21312,22182,30222,07162,28302,03212,17222,194292,195172,40001,08132,27001,14272,00000,00000,00000,00000,00000,00000,00000,00000,00000,00000,00000,00000,00000,00000,00000,00000,00000*72
$GPGGA,050105.000,3516.7348,N,13615.6004,E,1,11,1.06,86.8,M,35.3,M,,*52
$GPGLL,3516.7348,N,13615.6004,E,050105.000,A,A*53
$GPGSA,A,3,193,01,21,22,07,28,03,17,194,195,14,,1.36,1.06,0.86*3A
$GPGSV,4,1,15,195,84,013,17,01,79,347,26,21,58,036,31,194,57,189,29*7A
$GPGSV,4,2,15,22,53,121,18,14,44,313,27,08,38,078,,03,36,158,21*72
$GPGSV,4,3,15,28,29,317,30,30,27,255,22,17,21,292,22,07,18,215,16*7A
$GPGSV,4,4,15,193,17,161,28,27,08,092,,40,05,259,*75
$GPRMC,050105.000,A,3516.7348,N,13615.6004,E,0.13,58.40,160521,,,A*5E
$GPVTG,58.40,T,,M,0.13,N,0.23,K,A*07
$GPZDA,050105.000,16,05,2021,,*54
$PMTKCHN,193282,01262,21312,22182,30222,07142,28302,03202,17222,194302,195172,34001,08142,27001,14272,00000,00000,00000,00000,00000,00000,00000,00000,00000,00000,00000,00000,00000,00000,00000,00000,00000*7D
$GPGGA,050106.000,3516.7347,N,13615.6003,E,1,11,1.06,86.7,M,35.3,M,,*56
$GPGLL,3516.7347,N,13615.6003,E,050106.000,A,A*58
$GPGSA,A,3,193,01,21,22,07,28,03,17,194,195,14,,1.36,1.06,0.86*3A
$GPGSV,4,1,15,195,84,013,17,01,79,347,26,21,58,036,31,194,57,189,30*72
$GPGSV,4,2,15,22,53,121,18,14,44,313,27,08,38,078,,03,36,158,20*73
$GPGSV,4,3,15,28,29,317,30,30,27,255,22,17,21,292,22,07,18,215,14*78
$GPGSV,4,4,15,193,17,161,28,27,08,092,,34,,,*4D
$GPRMC,050106.000,A,3516.7347,N,13615.6003,E,0.07,58.40,160521,,,A*50
$GPVTG,58.40,T,,M,0.07,N,0.14,K,A*06
$GPZDA,050106.000,16,05,2021,,*57
$PMTKCHN,193282,01262,21312,22182,30212,07132,28302,03202,17222,194302,195172,34001,08122,27001,14272,00000,00000,00000,00000,00000,00000,00000,00000,00000,00000,00000,00000,00000,00000,00000,00000,00000*7F
$GPGGA,050107.000,3516.7347,N,13615.6004,E,1,11,1.06,86.6,M,35.3,M,,*51
$GPGLL,3516.7347,N,13615.6004,E,050107.000,A,A*5E
$GPGSA,A,3,193,01,21,22,07,28,03,17,194,195,14,,1.36,1.06,0.86*3A
$GPGSV,4,1,15,195,84,013,17,01,79,347,26,21,58,036,31,194,57,189,30*72
$GPGSV,4,2,15,22,53,121,18,14,44,313,27,08,38,078,,03,36,158,20*73
$GPGSV,4,3,15,28,29,317,30,30,27,255,21,17,21,292,22,07,18,215,13*7C
$GPGSV,4,4,15,193,17,161,28,27,08,092,,34,,,*4D
$GPRMC,050107.000,A,3516.7347,N,13615.6004,E,0.07,58.40,160521,,,A*56
$GPVTG,58.40,T,,M,0.07,N,0.12,K,A*00
$GPZDA,050107.000,16,05,2021,,*56
$PMTKCHN,193282,01262,21312,22182,30202,07162,28302,03202,17222,194302,195172,34001,08122,27001,14272,00000,00000,00000,00000,00000,00000,00000,00000,00000,00000,00000,00000,00000,00000,00000,00000,00000*7B
$GPGGA,050108.000,3516.7347,N,13615.6004,E,1,11,1.06,86.5,M,35.3,M,,*5D
$GPGLL,3516.7347,N,13615.6004,E,050108.000,A,A*51
$GPGSA,A,3,193,01,21,22,07,28,03,17,194,195,14,,1.36,1.06,0.86*3A
$GPGSV,4,1,15,195,84,013,17,01,79,347,26,21,58,036,31,194,57,189,30*72
$GPGSV,4,2,15,22,53,121,18,14,44,313,27,08,38,078,,03,36,158,20*73
$GPGSV,4,3,15,28,29,317,30,30,27,255,20,17,21,292,22,07,18,215,16*78
$GPGSV,4,4,15,193,17,161,28,27,08,092,,34,,,*4D
$GPRMC,050108.000,A,3516.7347,N,13615.6004,E,0.06,58.40,160521,,,A*58
$GPVTG,58.40,T,,M,0.06,N,0.12,K,A*01
$GPZDA,050108.000,16,05,2021,,*59
$PMTKCHN,193282,01262,21312,22182,30202,07162,28302,03192,17222,194302,195172,34001,08122,27001,14272,00000,00000,00000,00000,00000,00000,00000,00000,00000,00000,00000,00000,00000,00000,00000,00000,00000*71
$GPGGA,050109.000,3516.7347,N,13615.6003,E,1,11,1.06,86.4,M,35.3,M,,*5A
$GPGLL,3516.7347,N,13615.6003,E,050109.000,A,A*57
$GPGSA,A,3,193,01,21,22,07,28,03,17,194,195,14,,1.36,1.06,0.86*3A
$GPGSV,4,1,15,195,84,013,17,01,79,347,26,21,58,036,31,194,57,189,30*72
$GPGSV,4,2,15,22,53,121,18,14,44,313,27,08,38,078,,03,36,158,19*79
$GPGSV,4,3,15,28,29,317,30,30,27,255,20,17,21,292,22,07,18,215,16*78
$GPGSV,4,4,15,193,17,161,28,27,08,092,,34,,,*4D
$GPRMC,050109.000,A,3516.7347,N,13615.6003,E,0.11,58.40,160521,,,A*58
$GPVTG,58.40,T,,M,0.11,N,0.20,K,A*06
$GPZDA,050109.000,16,05,2021,,*58
$PMTKCHN,193282,01262,21312,22182,30202,07152,28302,03192,17222,194302,195172,34001,08001,27001,14272,00000,00000,00000,00000,00000,00000,00000,00000,00000,00000,00000,00000,00000,00000,00000,00000,00000*72
$GPGGA,050110.000,3516.7347,N,13615.6003,E,1,11,1.06,86.3,M,35.3,M,,*55
$GPGLL,3516.7347,N,13615.6003,E,050110.000,A,A*5F
$GPGSA,A,3,193,01,21,22,07,28,03,17,194,195,14,,1.36,1.06,0.86*3A
$GPGSV,4,1,15,195,84,013,17,01,79,347,26,21,58,036,31,194,57,189,30*72
$GPGSV,4,2,15,22,53,121,18,14,44,313,27,08,38,078,,03,36,158,19*79
$GPGSV,4,3,15,28,29,317,30,30,27,255,20,17,21,292,22,07,18,215,15*7B
$GPGSV,4,4,15,193,17,161,28,27,08,092,,34,,,*4D
$GPRMC,050110.000,A,3516.7347,N,13615.6003,E,0.16,58.40,160521,,,A*57
$GPVTG,58.40,T,,M,0.16,N,0.30,K,A*00
$GPZDA,050110.000,16,05,2021,,*50
$PMTKCHN,193282,01262,21312,22192,30202,07152,28302,03192,17222,194302,195172,34001,08001,27001,14272,00000,00000,00000,00000,00000,00000,00000,00000,00000,00000,00000,00000,00000,00000,00000,00000,00000*73
$GPGGA,050111.000,3516.7347,N,13615.6003,E,1,11,1.06,86.2,M,35.3,M,,*55
$GPGLL,3516.7347,N,13615.6003,E,050111.000,A,A*5E
$GPGSA,A,3,193,01,21,22,07,28,03,17,194,195,14,,1.36,1.06,0.86*3A
$GPGSV,4,1,15,195,84,013,17,01,79,347,26,21,58,036,31,194,57,189,30*72
$GPGSV,4,2,15,22,53,121,19,14,44,313,27,08,38,078,,03,36,158,19*78
$GPGSV,4,3,15,28,29,317,30,30,27,255,20,17,21,292,22,07,18,215,15*7B
$GPGSV,4,4,15,193,17,161,28,27,08,092,,34,,,*4D
$GPRMC,050111.000,A,3516.7347,N,13615.6003,E,0.25,58.40,160521,,,A*56
$GPVTG,58.40,T,,M,0.25,N,0.46,K,A*01
$GPZDA,050111.000,16,05,2021,,*51
$PMTKCHN,193282,01262,21312,22192,30202,07132,28302,03182,17222,194302,195172,35001,08001,27001,14272,00000,00000,00000,00000,00000,00000,00000,00000,00000,00000,00000,00000,00000,00000,00000,00000,00000*75
$GPGGA,050112.000,3516.7348,N,13615.6002,E,1,11,1.06,86.1,M,35.3,M,,*5B
$GPGLL,3516.7348,N,13615.6002,E,050112.000,A,A*53
$GPGSA,A,3,193,01,21,22,07,28,03,17,194,195,14,,1.36,1.06,0.86*3A
$GPGSV,4,1,15,195,84,013,17,01,79,347,26,21,58,036,31,194,57,189,30*72
$GPGSV,4,2,15,22,53,121,19,14,44,313,27,08,38,078,,03,36,158,18*79
$GPGSV,4,3,15,28,29,317,30,30,27,255,20,17,21,292,22,07,18,215,13*7D
$GPGSV,4,4,15,193,17,161,28,27,08,092,,35,,,*4C
$GPRMC,050112.000,A,3516.7348,N,13615.6002,E,0.03,58.40,160521,,,A*5F
$GPVTG,58.40,T,,M,0.03,N,0.06,K,A*01
$GPZDA,050112.000,16,05,2021,,*52
$PMTKCHN,193282,01262,21312,22192,30202,07112,28302,03182,17222,194292,195172,35001,08001,27001,14272,00000,00000,00000,00000,00000,00000,00000,00000,00000,00000,00000,00000,00000,00000,00000,00000,00000*7F
$GPGGA,050113.000,3516.7348,N,13615.6002,E,1,11,1.06,86.0,M,35.3,M,,*5B
$GPGLL,3516.7348,N,13615.6002,E,050113.000,A,A*52
$GPGSA,A,3,193,01,21,22,07,28,03,17,194,195,14,,1.36,1.06,0.86*3A
$GPGSV,4,1,15,195,84,013,17,01,79,347,26,21,58,036,31,194,57,189,29*7A
$GPGSV,4,2,15,22,53,121,19,14,44,313,27,08,38,078,,03,36,158,18*79
$GPGSV,4,3,15,28,29,317,30,30,27,255,20,17,21,292,22,07,18,215,11*7F
$GPGSV,4,4,15,193,17,161,28,27,08,092,,35,,,*4C
$GPRMC,050113.000,A,3516.7348,N,13615.6002,E,0.07,58.40,160521,,,A*5A
$GPVTG,58.40,T,,M,0.07,N,0.13,K,A*01
$GPZDA,050113.000,16,05,2021,,*53
$PMTKCHN,193282,01262,21312,22192,30202,07142,28302,03182,17232,194292,195162,35001,08001,27001,14272,00000,00000,00000,00000,00000,00000,00000,00000,00000,00000,00000,00000,00000,00000,00000,00000,00000*7A
$GPGGA,050114.000,3516.7347,N,13615.6002,E,1,11,1.06,85.9,M,35.3,M,,*59
$GPGLL,3516.7347,N,13615.6002,E,050114.000,A,A*5A
$GPGSA,A,3,193,01,21,22,07,28,03,17,194,195,14,,1.36,1.06,0.86*3A
$GPGSV,4,1,15,195,84,013,16,01,79,347,26,21,58,036,31,194,57,189,29*7B
$GPGSV,4,2,15,22,53,121,19,14,44,313,27,08,38,078,,03,36,158,18*79
$GPGSV,4,3,15,28,29,317,30,30,27,255,20,17,22,292,23,07,18,215,14*78
$GPGSV,4,4,15,193,17,161,28,27,08,092,,35,,,*4C
$GPRMC,050114.000,A,3516.7347,N,13615.6002,E,0.16,58.40,160521,,,A*52
$GPVTG,58.40,T,,M,0.16,N,0.29,K,A*08
$GPZDA,050114.000,16,05,2021,,*54
$PMTKCHN,193282,01252,21312,22192,30202,07132,28302,03182,17242,194292,195162,35001,08142,27001,14272,00000,00000,00000,00000,00000,00000,00000,00000,00000,00000,00000,00000,00000,00000,00000,00000,00000*7F
$GPGGA,050115.000,3516.7347,N,13615.6002,E,1,11,1.06,85.8,M,35.3,M,,*59
$GPGLL,3516.7347,N,13615.6002,E,050115.000,A,A*5B
$GPGSA,A,3,193,01,21,22,07,28,03,17,194,195,14,,1.36,1.06,0.86*3A
$GPGSV,4,1,15,195,84,013,16,01,79,347,25,21,58,036,31,194,57,189,29*78
$GPGSV,4,2,15,22,53,121,19,14,44,313,27,08,38,078,,03,36,158,18*79
$GPGSV,4,3,15,28,29,317,30,30,27,255,20,17,22,292,24,07,18,215,13*78
$GPGSV,4,4,15,193,17,161,28,27,08,092,,35,,,*4C
$GPRMC,050115.000,A,3516.7347,N,13615.6002,E,0.36,58.40,160521,,,A*51
$GPVTG,58.40,T,,M,0.36,N,0.67,K,A*00
$GPZDA,050115.000,16,05,2021,,*55
$PMTKCHN,193282,01292,21312,22192,30212,07142,28292,03182,17252,194292,195172,35001,08142,27001,14252,00000,00000,00000,00000,00000,00000,00000,00000,00000,00000,00000,00000,00000,00000,00000,00000,00000*7F
$GPGGA,050116.000,3516.7346,N,13615.6001,E,1,11,1.06,85.7,M,35.3,M,,*57
$GPGLL,3516.7346,N,13615.6001,E,050116.000,A,A*5A
$GPGSA,A,3,193,01,21,22,07,28,03,17,194,195,14,,1.36,1.06,0.86*3A
$GPGSV,4,1,15,195,84,013,17,01,79,347,29,21,58,036,31,194,57,189,29*75
$GPGSV,4,2,15,22,53,121,19,14,44,313,25,08,38,078,,03,36,158,18*7B
$GPGSV,4,3,15,28,29,317,29,30,27,255,21,17,22,292,25,07,18,215,14*77
$GPGSV,4,4,15,193,17,161,28,27,08,092,,35,,,*4C
$GPRMC,050116.000,A,3516.7346,N,13615.6001,E,0.21,58.40,160521,,,A*56
$GPVTG,58.40,T,,M,0.21,N,0.39,K,A*0D
$GPZDA,050116.000,16,05,2021,,*56
$PMTKCHN,193282,01292,21312,22192,30222,07142,28292,03192,17262,194292,195172,35001,08132,27001,14242,00000,00000,00000,00000,00000,00000,00000,00000,00000,00000,00000,00000,00000,00000,00000,00000,00000*78
$GPGGA,050117.000,3516.7346,N,13615.6000,E,1,11,1.06,85.6,M,35.3,M,,*56
$GPGLL,3516.7346,N,13615.6000,E,050117.000,A,A*5A
$GPGSA,A,3,193,01,21,22,07,28,03,17,194,195,14,,1.36,1.06,0.86*3A
$GPGSV,4,1,15,195,84,013,17,01,79,347,29,21,58,036,31,194,57,189,29*75
$GPGSV,4,2,15,22,53,121,19,14,44,313,24,08,38,078,,03,36,158,19*7B
$GPGSV,4,3,15,28,29,317,29,30,27,255,22,17,22,292,26,07,18,215,14*77
$GPGSV,4,4,15,193,17,161,28,27,08,092,,35,,,*4C
$GPRMC,050117.000,A,3516.7346,N,13615.6000,E,0.17,58.40,160521,,,A*53
$GPVTG,58.40,T,,M,0.17,N,0.32,K,A*03
$GPZDA,050117.000,16,05,2021,,*57
$PMTKCHN,193272,01292,21312,22192,30232,07162,28292,03202,17262,194292,195172,35001,08112,27001,14242,00000,00000,00000,00000,00000,00000,00000,00000,00000,00000,00000,00000,00000,00000,00000,00000,00000*7C
$GPGGA,050118.000,3516.7345,N,13615.6000,E,1,11,1.06,85.6,M,35.3,M,,*5A
$GPGLL,3516.7345,N,13615.6000,E,050118.000,A,A*56
$GPGSA,A,3,193,01,21,22,07,28,03,17,194,195,14,,1.36,1.06,0.86*3A
$GPGSV,4,1,15,195,84,013,17,01,79,347,29,21,58,036,31,194,57,189,29*75
$GPGSV,4,2,15,22,53,121,19,14,44,313,24,08,38,078,,03,36,158,20*71
$GPGSV,4,3,15,28,29,317,29,30,27,255,23,17,22,292,26,07,18,215,16*74
$GPGSV,4,4,15,193,17,161,27,27,08,092,,35,,,*43
$GPRMC,050118.000,A,3516.7345,N,13615.6000,E,0.30,58.40,160521,,,A*5A
$GPVTG,58.40,T,,M,0.30,N,0.56,K,A*04
$GPZDA,050118.000,16,05,2021,,*58
$PMTKCHN,193262,01292,21312,22192,30232,07152,28292,03212,17262,194292,195182,36001,08122,27001,14232,00000,00000,00000,00000,00000,00000,00000,00000,00000,00000,00000,00000,00000,00000,00000,00000,00000*77
$GPGGA,050119.000,3516.7345,N,13615.5999,E,1,11,1.06,85.5,M,35.3,M,,*52
$GPGLL,3516.7345,N,13615.5999,E,050119.000,A,A*5D
$GPGSA,A,3,193,01,21,22,07,28,03,17,194,195,14,,1.36,1.06,0.86*3A
$GPGSV,4,1,15,195,84,013,18,01,79,347,29,21,58,036,31,194,57,189,29*7A
$GPGSV,4,2,15,22,53,120,19,14,44,313,23,08,38,078,,03,36,158,21*76
$GPGSV,4,3,15,28,29,317,29,30,27,255,23,17,22,292,26,07,18,215,15*77
$GPGSV,4,4,15,193,17,161,26,27,08,092,,36,,,*41
$GPRMC,050119.000,A,3516.7345,N,13615.5999,E,0.27,58.40,160521,,,A*57
$GPVTG,58.40,T,,M,0.27,N,0.50,K,A*04
$GPZDA,050119.000,16,05,2021,,*59
